Name;Latitude;Longitude;Address;Rating;Reviews;Ratings Total;Postal Code;Street Number;Route;Locality;Admin Area Level 1;Admin Area Level 2;Country;Phone Number;Website;Opening Hours
Shell Recharge Charging Station;51.6797994;5.650512399999999;N/A;0;[];0;5406 XN;11;Belgenlaan;Uden;Noord-Brabant;Uden;Netherlands;088 010 9500;https://newmotion.com/en-gb;['Monday: Open 24 hours', 'Tuesday: Open 24 hours', 'Wednesday: Open 24 hours', 'Thursday: Open 24 hours', 'Friday: Open 24 hours', 'Saturday: Open 24 hours', 'Sunday: Open 24 hours']
Eneco Charging Station;51.67316;5.64816;N/A;0;[];0;5406 XT;18;Oostwijk;Uden;Noord-Brabant;Uden;Netherlands;040 636 0171;https://www.eneco-emobility.com/;['Monday: Open 24 hours', 'Tuesday: Open 24 hours', 'Wednesday: Open 24 hours', 'Thursday: Open 24 hours', 'Friday: Open 24 hours', 'Saturday: Open 24 hours', 'Sunday: Open 24 hours']
Robo Charge Charging Station;51.6954319;5.656224;N/A;0;[];0;5411 RS;6;Straatsven;Zeeland;Noord-Brabant;Landerd;Netherlands;0418 225 010;https://robo-charge.com/;['Monday: Open 24 hours', 'Tuesday: Open 24 hours', 'Wednesday: Open 24 hours', 'Thursday: Open 24 hours', 'Friday: Open 24 hours', 'Saturday: Open 24 hours', 'Sunday: Open 24 hours']
E-Flux Charging Station;51.6959431;5.6589025;N/A;0;[];0;5411 RS;4;Straatsven;Zeeland;Noord-Brabant;Landerd;Netherlands;020 763 0620;https://www.e-flux.nl/;['Monday: Open 24 hours', 'Tuesday: Open 24 hours', 'Wednesday: Open 24 hours', 'Thursday: Open 24 hours', 'Friday: Open 24 hours', 'Saturday: Open 24 hours', 'Sunday: Open 24 hours']
Shell Recharge Charging Station;51.677574;5.681356999999999;N/A;0;[];0;5411 NM;13A;Achter Oventje;Zeeland;Noord-Brabant;Landerd;Netherlands;088 010 9500;https://shellrecharge.com/en-gb/find-a-charge-point;['Monday: Open 24 hours', 'Tuesday: Open 24 hours', 'Wednesday: Open 24 hours', 'Thursday: Open 24 hours', 'Friday: Open 24 hours', 'Saturday: Open 24 hours', 'Sunday: Open 24 hours']
Allego Charging Station;51.6966748;5.67293;N/A;0;[];0;5411 EH;4;Kerkstraat;Zeeland;Noord-Brabant;Landerd;Netherlands;0800 3745337;https://www.allego.eu/nl-nl;['Monday: Open 24 hours', 'Tuesday: Open 24 hours', 'Wednesday: Open 24 hours', 'Thursday: Open 24 hours', 'Friday: Open 24 hours', 'Saturday: Open 24 hours', 'Sunday: Open 24 hours']
EVnetNL Charging Station;51.694425;5.673368000000001;N/A;0;[];0;5411 BE;2F;Puttelaar;Zeeland;Noord-Brabant;Landerd;Netherlands;0800 3522365;https://www.evnet.nl/;['Monday: Open 24 hours', 'Tuesday: Open 24 hours', 'Wednesday: Open 24 hours', 'Thursday: Open 24 hours', 'Friday: Open 24 hours', 'Saturday: Open 24 hours', 'Sunday: Open 24 hours']
NewMotion Charging Station;51.6949394;5.6694325;N/A;0;[];0;5411 EJ;N/A;Oude Molenstraat;Zeeland;Noord-Brabant;Landerd;Netherlands;088 010 9500;https://newmotion.com/;['Monday: Open 24 hours', 'Tuesday: Open 24 hours', 'Wednesday: Open 24 hours', 'Thursday: Open 24 hours', 'Friday: Open 24 hours', 'Saturday: Open 24 hours', 'Sunday: Open 24 hours']
Eneco Charging Station;51.6727408;5.647163099999999;N/A;0;[];0;5406 XT;1A;Oostwijk;Uden;Noord-Brabant;Uden;Netherlands;040 636 0171;https://www.eneco.nl/;['Monday: Open 24 hours', 'Tuesday: Open 24 hours', 'Wednesday: Open 24 hours', 'Thursday: Open 24 hours', 'Friday: Open 24 hours', 'Saturday: Open 24 hours', 'Sunday: Open 24 hours']
Allego Charging Station;51.7007679;5.670945;N/A;0;[];0;5411 TS;5;Wasmeesterstraat;Zeeland;Noord-Brabant;Landerd;Netherlands;0800 3745337;https://www.allego.nl/;['Monday: Open 24 hours', 'Tuesday: Open 24 hours', 'Wednesday: Open 24 hours', 'Thursday: Open 24 hours', 'Friday: Open 24 hours', 'Saturday: Open 24 hours', 'Sunday: Open 24 hours']
Shell Recharge Charging Station;51.7093028;5.6703996;N/A;0;[];0;5411 RK;2b;Landweer;Zeeland;Noord-Brabant;Landerd;Netherlands;088 010 9500;https://www.shell.nl/;['Monday: Open 24 hours', 'Tuesday: Open 24 hours', 'Wednesday: Open 24 hours', 'Thursday: Open 24 hours', 'Friday: Open 24 hours', 'Saturday: Open 24 hours', 'Sunday: Open 24 hours']
Vattenfall Charging Station;51.70103530000001;5.6789441;N/A;0;[];0;5411 GD;75;Melkpad;Zeeland;Noord-Brabant;Landerd;Netherlands;088 363 7991;https://www.vattenfall.nl;['Monday: Open 24 hours', 'Tuesday: Open 24 hours', 'Wednesday: Open 24 hours', 'Thursday: Open 24 hours', 'Friday: Open 24 hours', 'Saturday: Open 24 hours', 'Sunday: Open 24 hours']
E-Flux Charging Station;51.7093599;5.673907;N/A;0;[];0;5411 LV;32;Landweer;Zeeland;Noord-Brabant;Landerd;Netherlands;020 763 0620;https://www.e-flux.nl/;['Monday: Open 24 hours', 'Tuesday: Open 24 hours', 'Wednesday: Open 24 hours', 'Thursday: Open 24 hours', 'Friday: Open 24 hours', 'Saturday: Open 24 hours', 'Sunday: Open 24 hours']
NewMotion Charging Station;51.6759013;5.6452338;N/A;0;[];0;5406 XP;N/A;N/A;Uden;Noord-Brabant;Uden;Netherlands;088 010 9500;https://newmotion.com/;['Monday: Open 24 hours', 'Tuesday: Open 24 hours', 'Wednesday: Open 24 hours', 'Thursday: Open 24 hours', 'Friday: Open 24 hours', 'Saturday: Open 24 hours', 'Sunday: Open 24 hours']
