Name;Latitude;Longitude;Address;Rating;Reviews;Ratings Total;Postal Code;Street Number;Route;Locality;Admin Area Level 1;Admin Area Level 2;Country;Phone Number;Website;Opening Hours
Electricea Charging Station;50.9012222;5.789058799999999;N/A;0;[];0;6235 AA;4;Genzonweg;Ulestraten;Limburg;Meerssen;Netherlands;010 436 5065;https://www.electricea.com;['Monday: Open 24 hours', 'Tuesday: Open 24 hours', 'Wednesday: Open 24 hours', 'Thursday: Open 24 hours', 'Friday: Open 24 hours', 'Saturday: Open 24 hours', 'Sunday: Open 24 hours']
EVBox Charging Station;50.920433;5.786883;N/A;0;[];0;6199 AC;24;Horsterweg;Maastricht Airport;Limburg;Beek;Netherlands;088 775 5450;https://evbox.com/;['Monday: Open 24 hours', 'Tuesday: Open 24 hours', 'Wednesday: Open 24 hours', 'Thursday: Open 24 hours', 'Friday: Open 24 hours', 'Saturday: Open 24 hours', 'Sunday: Open 24 hours']
E-Flux Charging Station;50.91216499999999;5.771424;N/A;0;[];0;6199 AD;90;Vliegveldweg;Maastricht Airport;Limburg;Beek;Netherlands;020 763 0620;https://www.e-flux.nl/;['Monday: Open 24 hours', 'Tuesday: Open 24 hours', 'Wednesday: Open 24 hours', 'Thursday: Open 24 hours', 'Friday: Open 24 hours', 'Saturday: Open 24 hours', 'Sunday: Open 24 hours']
Scopius Charging Station;50.92109240000001;5.7905557;N/A;0;[];0;6199 AB;24;Europalaan;Maastricht Airport;Limburg;Beek;Netherlands;010 436 5065;https://scopius-ev.nl/;['Monday: Open 24 hours', 'Tuesday: Open 24 hours', 'Wednesday: Open 24 hours', 'Thursday: Open 24 hours', 'Friday: Open 24 hours', 'Saturday: Open 24 hours', 'Sunday: Open 24 hours']
Shell Recharge Charging Station;50.92272999999999;5.776578;N/A;0;[];0;3521 BJ;1;Croeselaan;Utrecht;Limburg;Beek;Netherlands;088 010 9500;https://newmotion.com/;['Monday: Open 24 hours', 'Tuesday: Open 24 hours', 'Wednesday: Open 24 hours', 'Thursday: Open 24 hours', 'Friday: Open 24 hours', 'Saturday: Open 24 hours', 'Sunday: Open 24 hours']
Shell Recharge Charging Station;50.9032937;5.7793683;N/A;0;[];0;6235 BJ;9;De Kling;Ulestraten;Limburg;Meerssen;Netherlands;088 010 9500;https://shellrecharge.com/;['Monday: Open 24 hours', 'Tuesday: Open 24 hours', 'Wednesday: Open 24 hours', 'Thursday: Open 24 hours', 'Friday: Open 24 hours', 'Saturday: Open 24 hours', 'Sunday: Open 24 hours']
EVnetNL Charging Station;50.9061004;5.7852105;N/A;0;[];0;6235 AC;3;Dorpstraat;Ulestraten;Limburg;Meerssen;Netherlands;0800 3522365;https://www.evnet.nl/;['Monday: Open 24 hours', 'Tuesday: Open 24 hours', 'Wednesday: Open 24 hours', 'Thursday: Open 24 hours', 'Friday: Open 24 hours', 'Saturday: Open 24 hours', 'Sunday: Open 24 hours']
E-Flux Charging Station;50.91604;5.7800639;N/A;0;[];0;6199 AC;18D;Horsterweg;Maastricht Airport;Limburg;Beek;Netherlands;020 763 0620;https://www.e-flux.nl/;['Monday: Open 24 hours', 'Tuesday: Open 24 hours', 'Wednesday: Open 24 hours', 'Thursday: Open 24 hours', 'Friday: Open 24 hours', 'Saturday: Open 24 hours', 'Sunday: Open 24 hours']
Alfen Charging Station;50.91789989999999;5.7847868;N/A;0;[];0;6199 AC;11;Horsterweg;Maastricht Airport;Limburg;Beek;Netherlands;036 549 3400;https://www.alfen.com;['Monday: Open 24 hours', 'Tuesday: Open 24 hours', 'Wednesday: Open 24 hours', 'Thursday: Open 24 hours', 'Friday: Open 24 hours', 'Saturday: Open 24 hours', 'Sunday: Open 24 hours']
EVBox Charging Station;50.9201785;5.7890998;N/A;0;[];0;6199 AB;31;Europalaan;Maastricht Airport;Limburg;Beek;Netherlands;088 775 5444;N/A;['Monday: Open 24 hours', 'Tuesday: Open 24 hours', 'Wednesday: Open 24 hours', 'Thursday: Open 24 hours', 'Friday: Open 24 hours', 'Saturday: Open 24 hours', 'Sunday: Open 24 hours']
Vattenfall Charging Station;50.91786399999999;5.785456;N/A;0;[];0;6199 AC;11;Horsterweg;Maastricht Airport;Limburg;Beek;Netherlands;088 363 7991;https://incharge.vattenfall.nl;['Monday: Open 24 hours', 'Tuesday: Open 24 hours', 'Wednesday: Open 24 hours', 'Thursday: Open 24 hours', 'Friday: Open 24 hours', 'Saturday: Open 24 hours', 'Sunday: Open 24 hours']
e-nuevo Charging Station;50.91623999999999;5.7795629;N/A;0;[];0;6199 AM;33;Luxemburglaan;Maastricht Airport;Limburg;Beek;Netherlands;088 011 0297;N/A;['Monday: Open 24 hours', 'Tuesday: Open 24 hours', 'Wednesday: Open 24 hours', 'Thursday: Open 24 hours', 'Friday: Open 24 hours', 'Saturday: Open 24 hours', 'Sunday: Open 24 hours']
e-nuevo Charging Station;50.90376200000001;5.783754999999999;N/A;0;[];0;6235 AS;20;Ligtenbergstraat;Ulestraten;Limburg;Meerssen;Netherlands;088 011 0297;https://www.enovates.com/;['Monday: Open 24 hours', 'Tuesday: Open 24 hours', 'Wednesday: Open 24 hours', 'Thursday: Open 24 hours', 'Friday: Open 24 hours', 'Saturday: Open 24 hours', 'Sunday: Open 24 hours']
Vattenfall Charging Station;50.90584200000001;5.7793389;N/A;0;[];0;6235 BP;34;Kasteelstraat;Ulestraten;Limburg;Meerssen;Netherlands;088 363 7991;https://incharge.vattenfall.nl/;['Monday: Open 24 hours', 'Tuesday: Open 24 hours', 'Wednesday: Open 24 hours', 'Thursday: Open 24 hours', 'Friday: Open 24 hours', 'Saturday: Open 24 hours', 'Sunday: Open 24 hours']
Allego Charging Station;50.92345;5.776774;N/A;0;[];0;6199 AA;30;Australiëlaan;Maastricht Airport;Limburg;Beek;Netherlands;0800 3745337;https://www.allego.eu/consumer;['Monday: Open 24 hours', 'Tuesday: Open 24 hours', 'Wednesday: Open 24 hours', 'Thursday: Open 24 hours', 'Friday: Open 24 hours', 'Saturday: Open 24 hours', 'Sunday: Open 24 hours']
Last Mile Solutions Charging Station;50.9012222;5.789058799999999;N/A;0;[];0;6235 AA;4;Genzonweg;Ulestraten;Limburg;Meerssen;Netherlands;010 436 5065;http://www.lastmilesolutions.com/;['Monday: Open 24 hours', 'Tuesday: Open 24 hours', 'Wednesday: Open 24 hours', 'Thursday: Open 24 hours', 'Friday: Open 24 hours', 'Saturday: Open 24 hours', 'Sunday: Open 24 hours']
