Name;Latitude;Longitude;Address;Rating;Reviews;Ratings Total;Postal Code;Street Number;Route;Locality;Admin Area Level 1;Admin Area Level 2;Country;Phone Number;Website;Opening Hours
PARKnCHARGE Charging Station;52.0385611;6.608763;N/A;0;[];0;7141 ZT;8;Kardinaal de Jongstraat;Groenlo;Gelderland;Oost Gelre;Netherlands;010 436 5065;https://www.parkncharge.nl;['Monday: Open 24 hours', 'Tuesday: Open 24 hours', 'Wednesday: Open 24 hours', 'Thursday: Open 24 hours', 'Friday: Open 24 hours', 'Saturday: Open 24 hours', 'Sunday: Open 24 hours']
E-Flux Charging Station;52.0420394;6.6081745;N/A;0;[];0;7141 KC;22;Ruurloseweg;Groenlo;Gelderland;Oost Gelre;Netherlands;020 763 0620;https://www.e-flux.nl/;['Monday: Open 24 hours', 'Tuesday: Open 24 hours', 'Wednesday: Open 24 hours', 'Thursday: Open 24 hours', 'Friday: Open 24 hours', 'Saturday: Open 24 hours', 'Sunday: Open 24 hours']
Last Mile Solutions Charging Station;52.043648;6.600367899999999;N/A;0;[];0;7141 WB;24;Evertsenstraat;Groenlo;Gelderland;Oost Gelre;Netherlands;010 436 5065;http://www.lastmilesolutions.com/;['Monday: Open 24 hours', 'Tuesday: Open 24 hours', 'Wednesday: Open 24 hours', 'Thursday: Open 24 hours', 'Friday: Open 24 hours', 'Saturday: Open 24 hours', 'Sunday: Open 24 hours']
EVnetNL Charging Station;52.041301;6.6130406;N/A;5;[];1;7141 AN;12;Ziekenhuisstraat;Groenlo;Gelderland;Oost Gelre;Netherlands;0800 3522365;https://www.evnet.nl/;['Monday: Open 24 hours', 'Tuesday: Open 24 hours', 'Wednesday: Open 24 hours', 'Thursday: Open 24 hours', 'Friday: Open 24 hours', 'Saturday: Open 24 hours', 'Sunday: Open 24 hours']
Shell Recharge Charging Station;52.0339418;6.6049152;N/A;0;[];0;7141 NL;144;De Snieder;Groenlo;Gelderland;Oost Gelre;Netherlands;088 010 9500;https://www.shell.nl/;['Monday: Open 24 hours', 'Tuesday: Open 24 hours', 'Wednesday: Open 24 hours', 'Thursday: Open 24 hours', 'Friday: Open 24 hours', 'Saturday: Open 24 hours', 'Sunday: Open 24 hours']
PARKnCHARGE Charging Station;52.0454851;6.6187805;N/A;0;[];0;7141 NL;11;Willem Neerfeldtstraat;Groenlo;Gelderland;Oost Gelre;Netherlands;010 436 5065;https://www.parkncharge.nl;['Monday: Open 24 hours', 'Tuesday: Open 24 hours', 'Wednesday: Open 24 hours', 'Thursday: Open 24 hours', 'Friday: Open 24 hours', 'Saturday: Open 24 hours', 'Sunday: Open 24 hours']
Last Mile Solutions Charging Station;52.0387119;6.601043;N/A;0;[];0;7141 PH;29;Zilversmid;Groenlo;Gelderland;Oost Gelre;Netherlands;010 436 5065;http://www.lastmilesolutions.com/;['Monday: Open 24 hours', 'Tuesday: Open 24 hours', 'Wednesday: Open 24 hours', 'Thursday: Open 24 hours', 'Friday: Open 24 hours', 'Saturday: Open 24 hours', 'Sunday: Open 24 hours']
E-Flux Charging Station;52.0444093;6.6069761;N/A;0;[];0;7141 WN;22;Emmasingel;Groenlo;Gelderland;Oost Gelre;Netherlands;020 763 0620;https://www.e-flux.nl/;['Monday: Open 24 hours', 'Tuesday: Open 24 hours', 'Wednesday: Open 24 hours', 'Thursday: Open 24 hours', 'Friday: Open 24 hours', 'Saturday: Open 24 hours', 'Sunday: Open 24 hours']
E-Flux Charging Station;52.0383553;6.6130841;N/A;0;[];0;7141 EL;N/A;Barkenkamp;Groenlo;Gelderland;Oost Gelre;Netherlands;020 763 0620;https://www.e-flux.nl/;['Monday: Open 24 hours', 'Tuesday: Open 24 hours', 'Wednesday: Open 24 hours', 'Thursday: Open 24 hours', 'Friday: Open 24 hours', 'Saturday: Open 24 hours', 'Sunday: Open 24 hours']
E-Flux Charging Station;52.042003;6.617731;N/A;0;[];0;7141 BV;6;Wheme;Groenlo;Gelderland;Oost Gelre;Netherlands;020 763 0620;https://www.e-flux.nl/;['Monday: Open 24 hours', 'Tuesday: Open 24 hours', 'Wednesday: Open 24 hours', 'Thursday: Open 24 hours', 'Friday: Open 24 hours', 'Saturday: Open 24 hours', 'Sunday: Open 24 hours']
PitPoint Charging Station;52.019877;6.5902857;N/A;0;[];0;7137 HG;3;Eimersweg;Lievelde;Gelderland;Oost Gelre;Netherlands;N/A;https://www.joulz.nl;['Monday: Open 24 hours', 'Tuesday: Open 24 hours', 'Wednesday: Open 24 hours', 'Thursday: Open 24 hours', 'Friday: Open 24 hours', 'Saturday: Open 24 hours', 'Sunday: Open 24 hours']
EVBox Charging Station;52.0411633;6.6119037;N/A;0;[];0;7141 EV;180;Deken Hooijmansingel;Groenlo;Gelderland;Oost Gelre;Netherlands;088 775 5444;https://evbox.com/en/;['Monday: Open 24 hours', 'Tuesday: Open 24 hours', 'Wednesday: Open 24 hours', 'Thursday: Open 24 hours', 'Friday: Open 24 hours', 'Saturday: Open 24 hours', 'Sunday: Open 24 hours']
EVBox Charging Station;52.034983;6.6106352;N/A;0;[];0;7141 NE;39;Garstenveld;Groenlo;Gelderland;Oost Gelre;Netherlands;088 775 5444;N/A;['Monday: Open 24 hours', 'Tuesday: Open 24 hours', 'Wednesday: Open 24 hours', 'Thursday: Open 24 hours', 'Friday: Open 24 hours', 'Saturday: Open 24 hours', 'Sunday: Open 24 hours']
Vattenfall Charging Station;52.0477204;6.6079289;N/A;0;[];0;7141 TH;7;Het Blik;Groenlo;Gelderland;Oost Gelre;Netherlands;088 363 7991;https://incharge.vattenfall.nl;['Monday: Open 24 hours', 'Tuesday: Open 24 hours', 'Wednesday: Open 24 hours', 'Thursday: Open 24 hours', 'Friday: Open 24 hours', 'Saturday: Open 24 hours', 'Sunday: Open 24 hours']
NewMotion (Shell Recharge) Charging Station;52.0350802;6.613996500000001;N/A;0;[];0;7141 DZ;58;Lichtenvoordseweg;Groenlo;Gelderland;Oost Gelre;Netherlands;23 96 07 04;https://newmotion.com/;['Monday: Open 24 hours', 'Tuesday: Open 24 hours', 'Wednesday: Open 24 hours', 'Thursday: Open 24 hours', 'Friday: Open 24 hours', 'Saturday: Open 24 hours', 'Sunday: Open 24 hours']
Vattenfall Charging Station;52.0335131;6.611255099999999;N/A;0;[];0;7141 ND;1;Garstenveld;Groenlo;Gelderland;Oost Gelre;Netherlands;088 363 7991;https://incharge.vattenfall.nl;['Monday: Open 24 hours', 'Tuesday: Open 24 hours', 'Wednesday: Open 24 hours', 'Thursday: Open 24 hours', 'Friday: Open 24 hours', 'Saturday: Open 24 hours', 'Sunday: Open 24 hours']
