Name;Latitude;Longitude;Address;Rating;Reviews;Ratings Total;Postal Code;Street Number;Route;Locality;Admin Area Level 1;Admin Area Level 2;Country;Phone Number;Website;Opening Hours
Lastmile Solutions Charging Station;52.15731599999999;6.302772;N/A;0;[];0;7218 AH;38 - 40;Dorpsstraat;Almen;Gelderland;Lochem;Netherlands;085 060 3863;http://www.lastmilesolutions.com/;N/A
E-Flux Charging Station;52.151822;6.290179999999999;N/A;0;[];0;7218 PA;31C;Lage Lochemseweg;Almen;Gelderland;Lochem;Netherlands;020 763 0620;https://www.e-flux.nl/;['Monday: Open 24 hours', 'Tuesday: Open 24 hours', 'Wednesday: Open 24 hours', 'Thursday: Open 24 hours', 'Friday: Open 24 hours', 'Saturday: Open 24 hours', 'Sunday: Open 24 hours']
EVBox Charging Station;52.156111;6.302842000000001;N/A;0;[];0;7218 AS;1;Berkelweg;Almen;Gelderland;Lochem;Netherlands;N/A;N/A;N/A
EVBox Charging Station;52.135999;6.2553465;N/A;0;[];0;7231 PA;5a;Vordenseweg;Warnsveld;Gelderland;Zutphen;Netherlands;088 775 5450;https://evbox.com/nl-nl/station-map;['Monday: Open 24 hours', 'Tuesday: Open 24 hours', 'Wednesday: Open 24 hours', 'Thursday: Open 24 hours', 'Friday: Open 24 hours', 'Saturday: Open 24 hours', 'Sunday: Open 24 hours']
Alfen Charging Station;52.1582503;6.2998069;N/A;0;[];0;7218 AB;31B;Dorpsstraat;Almen;Gelderland;Lochem;Netherlands;036 549 3400;https://alfen.com/;['Monday: Open 24 hours', 'Tuesday: Open 24 hours', 'Wednesday: Open 24 hours', 'Thursday: Open 24 hours', 'Friday: Open 24 hours', 'Saturday: Open 24 hours', 'Sunday: Open 24 hours']
EVBox Charging Station;52.1575245;6.3021978;N/A;0;[];0;7218 AC;39;Dorpsstraat;Almen;Gelderland;Lochem;Netherlands;088 775 5444;https://evbox.com/nl-nl/;N/A
Vattenfall Charging Station;52.1550044;6.301976;N/A;0;[];0;7218 AS;N/A;Berkelweg;Almen;Gelderland;Lochem;Netherlands;088 363 7991;https://incharge.vattenfall.nl;['Monday: Open 24 hours', 'Tuesday: Open 24 hours', 'Wednesday: Open 24 hours', 'Thursday: Open 24 hours', 'Friday: Open 24 hours', 'Saturday: Open 24 hours', 'Sunday: Open 24 hours']
Last Mile Solutions Charging Station;52.1394315;6.267028499999999;N/A;0;[];0;7231 PD;20;Lochemseweg;Warnsveld;Gelderland;Zutphen;Netherlands;010 436 5065;http://www.lastmilesolutions.com/;['Monday: Open 24 hours', 'Tuesday: Open 24 hours', 'Wednesday: Open 24 hours', 'Thursday: Open 24 hours', 'Friday: Open 24 hours', 'Saturday: Open 24 hours', 'Sunday: Open 24 hours']
