Name;Latitude;Longitude;Address;Rating;Reviews;Ratings Total;Postal Code;Street Number;Route;Locality;Admin Area Level 1;Admin Area Level 2;Country;Phone Number;Website;Opening Hours
Shell Recharge Charging Station;52.0240567;5.8804073;N/A;1.8;[];5;6816 VZ;N/A;N/A;Arnhem;Gelderland;Arnhem;Netherlands;026 443 6977;https://find.shell.com/nl/fuel/10030454-shell-station-de-schaars;['Monday: Open 24 hours', 'Tuesday: Open 24 hours', 'Wednesday: Open 24 hours', 'Thursday: Open 24 hours', 'Friday: Open 24 hours', 'Saturday: Open 24 hours', 'Sunday: Open 24 hours']
Tesla Destination Charger;52.0104013;5.8655674;N/A;0;[];0;6816 VP;277;Bakenbergseweg;Arnhem;Gelderland;Arnhem;Netherlands;026 445 5751;https://www.tesla.com/charging;N/A
Opcharge Charging Station;51.99545149999999;5.876735699999999;N/A;0;[];0;6813 JD;151;Josef Israelslaan;Arnhem;Gelderland;Arnhem;Netherlands;076 785 3231;https://opcharge.com/;['Monday: Open 24 hours', 'Tuesday: Open 24 hours', 'Wednesday: Open 24 hours', 'Thursday: Open 24 hours', 'Friday: Open 24 hours', 'Saturday: Open 24 hours', 'Sunday: Open 24 hours']
E-Flux Charging Station;52.003307;5.82931;N/A;0;[];0;6816 VE;25;Sportlaan;Arnhem;Gelderland;Arnhem;Netherlands;020 763 0620;https://www.e-flux.nl/;['Monday: Open 24 hours', 'Tuesday: Open 24 hours', 'Wednesday: Open 24 hours', 'Thursday: Open 24 hours', 'Friday: Open 24 hours', 'Saturday: Open 24 hours', 'Sunday: Open 24 hours']
Allego Charging Station;52.0119596;5.8771749;N/A;0;[];0;6816 RK;4;Het Lage Erf;Arnhem;Gelderland;Arnhem;Netherlands;0800 3745337;https://www.allego.eu/nl-nl;['Monday: Open 24 hours', 'Tuesday: Open 24 hours', 'Wednesday: Open 24 hours', 'Thursday: Open 24 hours', 'Friday: Open 24 hours', 'Saturday: Open 24 hours', 'Sunday: Open 24 hours']
Allego Charging Station;51.99573549999999;5.887078799999999;N/A;0;[];0;6814 KH;96;Van Heemstralaan;Arnhem;Gelderland;Arnhem;Netherlands;0800 3745337;https://www.allego.eu/nl-nl;['Monday: Open 24 hours', 'Tuesday: Open 24 hours', 'Wednesday: Open 24 hours', 'Thursday: Open 24 hours', 'Friday: Open 24 hours', 'Saturday: Open 24 hours', 'Sunday: Open 24 hours']
Allego Charging Station;51.9946509;5.8785982;N/A;0;[];0;6813 HG;2;Van Goghstraat;Arnhem;Gelderland;Arnhem;Netherlands;0800 3745337;https://www.allego.eu/;['Monday: Open 24 hours', 'Tuesday: Open 24 hours', 'Wednesday: Open 24 hours', 'Thursday: Open 24 hours', 'Friday: Open 24 hours', 'Saturday: Open 24 hours', 'Sunday: Open 24 hours']
Allego Charging Station;51.997946;5.880109;N/A;0;[];0;6813 HS;74;Breitnerstraat;Arnhem;Gelderland;Arnhem;Netherlands;088 033 3033;https://www.allego.eu/;['Monday: Open 24 hours', 'Tuesday: Open 24 hours', 'Wednesday: Open 24 hours', 'Thursday: Open 24 hours', 'Friday: Open 24 hours', 'Saturday: Open 24 hours', 'Sunday: Open 24 hours']
EVBox Charging Station;52.015328;5.8307381;N/A;0;[];0;6816 VS;N/A;Waterkeringpad;Arnhem;Gelderland;Arnhem;Netherlands;088 775 5450;https://evbox.com/;['Monday: Open 24 hours', 'Tuesday: Open 24 hours', 'Wednesday: Open 24 hours', 'Thursday: Open 24 hours', 'Friday: Open 24 hours', 'Saturday: Open 24 hours', 'Sunday: Open 24 hours']
Allego Charging Station;51.99698710000001;5.8769864;N/A;0;[];0;6813 GS;70;Mesdaglaan;Arnhem;Gelderland;Arnhem;Netherlands;0800 3745337;https://www.allego.eu/;['Monday: Open 24 hours', 'Tuesday: Open 24 hours', 'Wednesday: Open 24 hours', 'Thursday: Open 24 hours', 'Friday: Open 24 hours', 'Saturday: Open 24 hours', 'Sunday: Open 24 hours']
Ecotap Charging Station;52.03107199999999;5.866638;N/A;2;[];1;6816 TC;14;Koningsweg;Arnhem;Gelderland;Arnhem;Netherlands;0411 745 020;https://www.ecotap.nl/en/support/;['Monday: Open 24 hours', 'Tuesday: Open 24 hours', 'Wednesday: Open 24 hours', 'Thursday: Open 24 hours', 'Friday: Open 24 hours', 'Saturday: Open 24 hours', 'Sunday: Open 24 hours']
Shell Recharge Charging Station;52.0063249;5.8761432;N/A;0;[];0;6816 RE;5;Pollendal;Arnhem;Gelderland;Arnhem;Netherlands;088 010 9500;https://shellrecharge.com/;['Monday: Open 24 hours', 'Tuesday: Open 24 hours', 'Wednesday: Open 24 hours', 'Thursday: Open 24 hours', 'Friday: Open 24 hours', 'Saturday: Open 24 hours', 'Sunday: Open 24 hours']
NewMotion Charging Station;52.028313;5.869402;N/A;0;[];0;6816 RW;783;Kemperbergerweg;Arnhem;Gelderland;Arnhem;Netherlands;088 010 9500;https://newmotion.com/;['Monday: Open 24 hours', 'Tuesday: Open 24 hours', 'Wednesday: Open 24 hours', 'Thursday: Open 24 hours', 'Friday: Open 24 hours', 'Saturday: Open 24 hours', 'Sunday: Open 24 hours']
Allego Charging Station;51.9928488;5.891938499999999;N/A;3;[];1;6814 KV;25;Van Heemstralaan;Arnhem;Gelderland;Arnhem;Netherlands;0800 3745337;N/A;['Monday: Open 24 hours', 'Tuesday: Open 24 hours', 'Wednesday: Open 24 hours', 'Thursday: Open 24 hours', 'Friday: Open 24 hours', 'Saturday: Open 24 hours', 'Sunday: Open 24 hours']
Shell Recharge Charging Station;51.9964293;5.880385899999999;N/A;0;[];0;6813 JE;34;Josef Israelslaan;Arnhem;Gelderland;Arnhem;Netherlands;088 010 9500;https://shellrecharge.com/;['Monday: Open 24 hours', 'Tuesday: Open 24 hours', 'Wednesday: Open 24 hours', 'Thursday: Open 24 hours', 'Friday: Open 24 hours', 'Saturday: Open 24 hours', 'Sunday: Open 24 hours']
Robo Charge Charging Station;51.99414969999999;5.830543;N/A;0;[];0;6861 BB;24;Secretaris Kuitstraat;Oosterbeek;Gelderland;Renkum;Netherlands;0418 225 010;https://robo-charge.com/;['Monday: Open 24 hours', 'Tuesday: Open 24 hours', 'Wednesday: Open 24 hours', 'Thursday: Open 24 hours', 'Friday: Open 24 hours', 'Saturday: Open 24 hours', 'Sunday: Open 24 hours']
Allego Charging Station;51.9954615;5.8767365;N/A;1;[];1;6813 JD;151;Josef Israelslaan;Arnhem;Gelderland;Arnhem;Netherlands;0800 3745337;https://www.allego.eu/nl-nl;['Monday: Open 24 hours', 'Tuesday: Open 24 hours', 'Wednesday: Open 24 hours', 'Thursday: Open 24 hours', 'Friday: Open 24 hours', 'Saturday: Open 24 hours', 'Sunday: Open 24 hours']
Allego Charging Station;51.994007;5.890416;N/A;0;[];0;6814 KT;19;Paulus Potterstraat;Arnhem;Gelderland;Arnhem;Netherlands;0800 3745337;https://www.allego.nl/;['Monday: Open 24 hours', 'Tuesday: Open 24 hours', 'Wednesday: Open 24 hours', 'Thursday: Open 24 hours', 'Friday: Open 24 hours', 'Saturday: Open 24 hours', 'Sunday: Open 24 hours']
