Name;Latitude;Longitude;Address;Rating;Reviews;Ratings Total;Postal Code;Street Number;Route;Locality;Admin Area Level 1;Admin Area Level 2;Country;Phone Number;Website;Opening Hours
Ecotap Charging Station;51.5043953;5.7883932;N/A;0;[];0;5763 AD;19;Milheesestraat;Milheeze;Noord-Brabant;Gemert-Bakel;Netherlands;010 436 5065;https://www.ecotap.nl/;['Monday: Open 24 hours', 'Tuesday: Open 24 hours', 'Wednesday: Open 24 hours', 'Thursday: Open 24 hours', 'Friday: Open 24 hours', 'Saturday: Open 24 hours', 'Sunday: Open 24 hours']
Electric Vehicle Charging Station;51.5076724;5.7739416;N/A;0;[];0;5763 PR;4;Kreijtenberg;Milheeze;Noord-Brabant;Gemert-Bakel;Netherlands;N/A;http://www.opdnkreijtenberg.nl/;['Monday: Open 24 hours', 'Tuesday: Open 24 hours', 'Wednesday: Open 24 hours', 'Thursday: Open 24 hours', 'Friday: Open 24 hours', 'Saturday: Open 24 hours', 'Sunday: Open 24 hours']
MAXEM Charging Station;51.5000874;5.7776426;N/A;0;[];0;5763 BW;6;Meijlakker;Milheeze;Noord-Brabant;Gemert-Bakel;Netherlands;020 770 8713;N/A;['Monday: Open 24 hours', 'Tuesday: Open 24 hours', 'Wednesday: Open 24 hours', 'Thursday: Open 24 hours', 'Friday: Open 24 hours', 'Saturday: Open 24 hours', 'Sunday: Open 24 hours']
Vattenfall Charging Station;51.5017931;5.781796;N/A;0;[];0;5763 AX;6;Groenendaal;Milheeze;Noord-Brabant;Gemert-Bakel;Netherlands;088 363 7991;https://incharge.vattenfall.nl;['Monday: Open 24 hours', 'Tuesday: Open 24 hours', 'Wednesday: Open 24 hours', 'Thursday: Open 24 hours', 'Friday: Open 24 hours', 'Saturday: Open 24 hours', 'Sunday: Open 24 hours']
GreenPoint Charging Station;51.5044293;5.788422799999999;N/A;0;[];0;5763 AD;19;Milheesestraat;Milheeze;Noord-Brabant;Gemert-Bakel;Netherlands;0492 792 968;https://www.greenpointfuels.nl/tankstations/greenpoint-milheeze/;['Monday: Open 24 hours', 'Tuesday: Open 24 hours', 'Wednesday: Open 24 hours', 'Thursday: Open 24 hours', 'Friday: Open 24 hours', 'Saturday: Open 24 hours', 'Sunday: Open 24 hours']
Vattenfall Charging Station;51.5020794;5.775545399999999;N/A;0;[];0;5763 AV;19A;Bergakker;Milheeze;Noord-Brabant;Gemert-Bakel;Netherlands;088 363 7991;https://incharge.vattenfall.nl;['Monday: Open 24 hours', 'Tuesday: Open 24 hours', 'Wednesday: Open 24 hours', 'Thursday: Open 24 hours', 'Friday: Open 24 hours', 'Saturday: Open 24 hours', 'Sunday: Open 24 hours']
Vattenfall Charging Station;51.5031648;5.7793269;N/A;0;[];0;5763 BC;N/A;Kerkeind;Milheeze;Noord-Brabant;Gemert-Bakel;Netherlands;088 363 7991;https://incharge.vattenfall.nl;['Monday: Open 24 hours', 'Tuesday: Open 24 hours', 'Wednesday: Open 24 hours', 'Thursday: Open 24 hours', 'Friday: Open 24 hours', 'Saturday: Open 24 hours', 'Sunday: Open 24 hours']
